{
"type": "FeatureCollection",
"crs": { "type": "name", "properties": { "name": "urn:ogc:def:crs:EPSG::4267" } },
                                                                                
"features": [
{ "type": "Feature", "properties": { "NAME": "Lake Turkana fishing lodg", "TYPE": "lodge" }, "geometry": { "type": "Point", "coordinates": [ 35.935236625069912, 3.547517738334035 ] } },
{ "type": "Feature", "properties": { "NAME": "Eliye Springs fishing lod", "TYPE": "lodge" }, "geometry": { "type": "Point", "coordinates": [ 36.006621770704825, 3.295290223757336 ] } },
{ "type": "Feature", "properties": { "NAME": "Oasis club", "TYPE": "lodge" }, "geometry": { "type": "Point", "coordinates": [ 36.761383287852972, 2.796791391174069 ] } },
{ "type": "Feature", "properties": { "NAME": "Sunset camp", "TYPE": "camp site" }, "geometry": { "type": "Point", "coordinates": [ 36.762989082540891, 2.74861755053657 ] } },
{ "type": "Feature", "properties": { "NAME": "Elmolo camp", "TYPE": "camp site" }, "geometry": { "type": "Point", "coordinates": [ 36.766221802849792, 2.718863559508314 ] } },
{ "type": "Feature", "properties": { "NAME": "Maralal safari lodge", "TYPE": "lodge" }, "geometry": { "type": "Point", "coordinates": [ 36.745007067402781, 1.081793140847 ] } },
{ "type": "Feature", "properties": { "NAME": "Mount Elgon Lodge", "TYPE": "lodge" }, "geometry": { "type": "Point", "coordinates": [ 34.760672505869998, 1.093193925028537 ] } },
{ "type": "Feature", "properties": { "NAME": "Sirikwa camp", "TYPE": "camp site" }, "geometry": { "type": "Point", "coordinates": [ 35.039971374305921, 1.080401610443686 ] } },
{ "type": "Feature", "properties": { "NAME": null, "TYPE": "hotel" }, "geometry": { "type": "Point", "coordinates": [ 35.061291898614002, 1.037760561827515 ] } },
{ "type": "Feature", "properties": { "NAME": "Lake Baringo lodge", "TYPE": "lodge" }, "geometry": { "type": "Point", "coordinates": [ 36.048432174078364, 0.604953918373378 ] } },
{ "type": "Feature", "properties": { "NAME": "Island camp", "TYPE": "tented camp" }, "geometry": { "type": "Point", "coordinates": [ 36.10173348484858, 0.604953918373378 ] } },
{ "type": "Feature", "properties": { "NAME": "Lake Baringo club", "TYPE": "camp site" }, "geometry": { "type": "Point", "coordinates": [ 36.024979597339467, 0.566576974618824 ] } },
{ "type": "Feature", "properties": { "NAME": null, "TYPE": "hotel" }, "geometry": { "type": "Point", "coordinates": [ 35.726492257026273, 0.496219244402142 ] } },
{ "type": "Feature", "properties": { "NAME": null, "TYPE": "hotel" }, "geometry": { "type": "Point", "coordinates": [ 35.321402295172646, 0.523935926002653 ] } },
{ "type": "Feature", "properties": { "NAME": null, "TYPE": "hotel" }, "geometry": { "type": "Point", "coordinates": [ 34.526146738481053, 0.568709027049633 ] } },
{ "type": "Feature", "properties": { "NAME": null, "TYPE": "hotel" }, "geometry": { "type": "Point", "coordinates": [ 34.72655966697706, 0.242505005135924 ] } },
{ "type": "Feature", "properties": { "NAME": "Sunset Hotel", "TYPE": "hotel" }, "geometry": { "type": "Point", "coordinates": [ 34.781993030178086, -0.154056746994467 ] } },
{ "type": "Feature", "properties": { "NAME": null, "TYPE": "hotel" }, "geometry": { "type": "Point", "coordinates": [ 34.803313554486166, -0.096491331362636 ] } },
{ "type": "Feature", "properties": { "NAME": null, "TYPE": "hotel" }, "geometry": { "type": "Point", "coordinates": [ 35.511154961514606, 0.359767888830396 ] } },
{ "type": "Feature", "properties": { "NAME": "Lake Bogoria Lodge", "TYPE": "lodge" }, "geometry": { "type": "Point", "coordinates": [ 36.082545012971302, 0.246769109997543 ] } },
{ "type": "Feature", "properties": { "NAME": "Thompson's falls lodge", "TYPE": "lodge" }, "geometry": { "type": "Point", "coordinates": [ 36.40874903488502, 0.054884391224772 ] } },
{ "type": "Feature", "properties": { "NAME": "Ngobit fishing lodge", "TYPE": "lodge" }, "geometry": { "type": "Point", "coordinates": [ 36.754141528676001, -0.053850282746465 ] } },
{ "type": "Feature", "properties": { "NAME": "Aberdare country club", "TYPE": "hotel" }, "geometry": { "type": "Point", "coordinates": [ 36.942413603052124, -0.31600912183667 ] } },
{ "type": "Feature", "properties": { "NAME": "Mweiga treetops hotel", "TYPE": "lodge" }, "geometry": { "type": "Point", "coordinates": [ 36.887872078776404, -0.34758579378577 ] } },
{ "type": "Feature", "properties": { "NAME": "outspan hotel", "TYPE": "hotel" }, "geometry": { "type": "Point", "coordinates": [ 36.912989886008646, -0.411456789319175 ] } },
{ "type": "Feature", "properties": { "NAME": null, "TYPE": "hotel" }, "geometry": { "type": "Point", "coordinates": [ 36.968249061919572, -0.45308058416117 ] } },
{ "type": "Feature", "properties": { "NAME": "The arc", "TYPE": "lodge" }, "geometry": { "type": "Point", "coordinates": [ 36.741471145194218, -0.364809433030733 ] } },
{ "type": "Feature", "properties": { "NAME": "Lion hill camp", "TYPE": "tented camp" }, "geometry": { "type": "Point", "coordinates": [ 36.139271716801311, -0.344356361427339 ] } },
{ "type": "Feature", "properties": { "NAME": null, "TYPE": "hotel" }, "geometry": { "type": "Point", "coordinates": [ 36.025344519712228, -0.306679650578982 ] } },
{ "type": "Feature", "properties": { "NAME": "Lake Nakuru lodge", "TYPE": "lodge" }, "geometry": { "type": "Point", "coordinates": [ 36.112359780481057, -0.40984207313996 ] } },
{ "type": "Feature", "properties": { "NAME": null, "TYPE": "hotel" }, "geometry": { "type": "Point", "coordinates": [ 35.688945315709041, -0.242988067954378 ] } },
{ "type": "Feature", "properties": { "NAME": "Tea Hotel kericho", "TYPE": "hotel" }, "geometry": { "type": "Point", "coordinates": [ 35.294236916345298, -0.373062426835611 ] } },
{ "type": "Feature", "properties": { "NAME": "Mid West Hotel", "TYPE": "hotel" }, "geometry": { "type": "Point", "coordinates": [ 35.215295236472549, -0.369474168659577 ] } },
{ "type": "Feature", "properties": { "NAME": null, "TYPE": "hotel" }, "geometry": { "type": "Point", "coordinates": [ 34.424981373201057, -0.531842851125117 ] } },
{ "type": "Feature", "properties": { "NAME": null, "TYPE": "hotel" }, "geometry": { "type": "Point", "coordinates": [ 34.747027544500114, -0.696902727222681 ] } },
{ "type": "Feature", "properties": { "NAME": "Mara Buffallo camp", "TYPE": "tented camp" }, "geometry": { "type": "Point", "coordinates": [ 35.180309719256215, -1.127493708346763 ] } },
{ "type": "Feature", "properties": { "NAME": "Mara River Camp", "TYPE": "tented camp" }, "geometry": { "type": "Point", "coordinates": [ 35.077147296695237, -1.184008774619299 ] } },
{ "type": "Feature", "properties": { "NAME": "Kichwa tembo camp", "TYPE": "tented camp" }, "geometry": { "type": "Point", "coordinates": [ 35.020632230422706, -1.236038518171792 ] } },
{ "type": "Feature", "properties": { "NAME": "Little governors camp", "TYPE": "tented camp" }, "geometry": { "type": "Point", "coordinates": [ 35.017043972246668, -1.28537706809226 ] } },
{ "type": "Feature", "properties": { "NAME": "Governors camp", "TYPE": "tented camp" }, "geometry": { "type": "Point", "coordinates": [ 35.043955908566929, -1.30959781078049 ] } },
{ "type": "Feature", "properties": { "NAME": "Mara Serena Logde", "TYPE": "lodge" }, "geometry": { "type": "Point", "coordinates": [ 35.004485068630551, -1.402892523357374 ] } },
{ "type": "Feature", "properties": { "NAME": "Mara Intrepid's club", "TYPE": "lodge" }, "geometry": { "type": "Point", "coordinates": [ 35.108544555735534, -1.397510136093323 ] } },
{ "type": "Feature", "properties": { "NAME": "Fig tree camp", "TYPE": "tented camp" }, "geometry": { "type": "Point", "coordinates": [ 35.206324591032462, -1.428907395133621 ] } },
{ "type": "Feature", "properties": { "NAME": null, "TYPE": "camp site" }, "geometry": { "type": "Point", "coordinates": [ 35.259251399128971, -1.451334008733833 ] } },
{ "type": "Feature", "properties": { "NAME": "Mara Sarova Camp", "TYPE": "camp site" }, "geometry": { "type": "Point", "coordinates": [ 35.324737110841589, -1.54911404403076 ] } },
{ "type": "Feature", "properties": { "NAME": "keekorok Lodge", "TYPE": "lodge" }, "geometry": { "type": "Point", "coordinates": [ 35.243104237336816, -1.604732045759287 ] } },
{ "type": "Feature", "properties": { "NAME": "Mara Sopa lodge", "TYPE": "lodge" }, "geometry": { "type": "Point", "coordinates": [ 35.4000905325383, -1.606526174847304 ] } },
{ "type": "Feature", "properties": { "NAME": "Cottar's mara camp", "TYPE": "tented camp" }, "geometry": { "type": "Point", "coordinates": [ 35.437767243386659, -1.497981365022275 ] } },
{ "type": "Feature", "properties": { "NAME": "Maasai lodge", "TYPE": "lodge" }, "geometry": { "type": "Point", "coordinates": [ 36.802202414823604, -1.396613071549316 ] } },
{ "type": "Feature", "properties": { "NAME": null, "TYPE": "hotel" }, "geometry": { "type": "Point", "coordinates": [ 36.783364059399425, -1.311391939868508 ] } },
{ "type": "Feature", "properties": { "NAME": null, "TYPE": "hotel" }, "geometry": { "type": "Point", "coordinates": [ 37.08029242346624, -1.070978642074228 ] } },
{ "type": "Feature", "properties": { "NAME": null, "TYPE": "hotel" }, "geometry": { "type": "Point", "coordinates": [ 37.11617500522658, -0.437651074004224 ] } },
{ "type": "Feature", "properties": { "NAME": "Naro moru river lodge", "TYPE": "lodge" }, "geometry": { "type": "Point", "coordinates": [ 37.000453679049478, -0.121884354513231 ] } },
{ "type": "Feature", "properties": { "NAME": "Mountain rock hotel", "TYPE": "lodge" }, "geometry": { "type": "Point", "coordinates": [ 37.093748391626363, -0.044736803728499 ] } },
{ "type": "Feature", "properties": { "NAME": null, "TYPE": "hotel" }, "geometry": { "type": "Point", "coordinates": [ 37.126939779754679, -0.019618996496261 ] } },
{ "type": "Feature", "properties": { "NAME": null, "TYPE": "hotel" }, "geometry": { "type": "Point", "coordinates": [ 37.082983617098265, 0.043175521584334 ] } },
{ "type": "Feature", "properties": { "NAME": "Karungu camp", "TYPE": "camp site" }, "geometry": { "type": "Point", "coordinates": [ 36.953806322761039, 2.13243884458014 ] } },
{ "type": "Feature", "properties": { "NAME": "Marsabit lodge", "TYPE": "lodge" }, "geometry": { "type": "Point", "coordinates": [ 37.978254032018746, 2.25802788074133 ] } },
{ "type": "Feature", "properties": { "NAME": null, "TYPE": "camp site" }, "geometry": { "type": "Point", "coordinates": [ 38.020416065587142, 2.293013397957662 ] } },
{ "type": "Feature", "properties": { "NAME": null, "TYPE": "camp site" }, "geometry": { "type": "Point", "coordinates": [ 37.929812546642282, 2.205998137188837 ] } },
{ "type": "Feature", "properties": { "NAME": "Bura country club lodge", "TYPE": "lodge" }, "geometry": { "type": "Point", "coordinates": [ 39.914119317989076, -1.076361029338279 ] } },
{ "type": "Feature", "properties": { "NAME": "Baome lodge", "TYPE": "lodge" }, "geometry": { "type": "Point", "coordinates": [ 40.107885259494907, -1.87923379622589 ] } },
{ "type": "Feature", "properties": { "NAME": "Petley's inn", "TYPE": "hotel" }, "geometry": { "type": "Point", "coordinates": [ 40.897302058222394, -2.251515581989419 ] } },
{ "type": "Feature", "properties": { "NAME": "Blue safari club", "TYPE": "hotel" }, "geometry": { "type": "Point", "coordinates": [ 40.969964286287087, -2.253309711077436 ] } },
{ "type": "Feature", "properties": { "NAME": "Ras Kitau beach hotel", "TYPE": "hotel" }, "geometry": { "type": "Point", "coordinates": [ 40.948434737230883, -2.295471744645836 ] } },
{ "type": "Feature", "properties": { "NAME": "Peponi hotel", "TYPE": "hotel" }, "geometry": { "type": "Point", "coordinates": [ 40.897302058222394, -2.317001293702039 ] } },
{ "type": "Feature", "properties": { "NAME": "Mlango wa chano lodge", "TYPE": "lodge" }, "geometry": { "type": "Point", "coordinates": [ 41.326098910258452, -1.960866669730664 ] } },
{ "type": "Feature", "properties": { "NAME": "Kiwayu lodge", "TYPE": "lodge" }, "geometry": { "type": "Point", "coordinates": [ 41.248054294929716, -2.023661187811259 ] } },
{ "type": "Feature", "properties": { "NAME": "Che shale club", "TYPE": "hotel" }, "geometry": { "type": "Point", "coordinates": [ 40.171576842119507, -3.047211832524963 ] } },
{ "type": "Feature", "properties": { "NAME": "crocodile camp", "TYPE": "tented camp" }, "geometry": { "type": "Point", "coordinates": [ 39.258365136318844, -3.099241576077456 ] } },
{ "type": "Feature", "properties": { "NAME": "Aruba lodge", "TYPE": "lodge" }, "geometry": { "type": "Point", "coordinates": [ 38.872627382395187, -3.358493229295914 ] } },
{ "type": "Feature", "properties": { "NAME": "Voi safari lodge", "TYPE": "lodge" }, "geometry": { "type": "Point", "coordinates": [ 38.581081405592421, -3.344140196591778 ] } },
{ "type": "Feature", "properties": { "NAME": "Salt lick lodge", "TYPE": "lodge" }, "geometry": { "type": "Point", "coordinates": [ 38.233917427061137, -3.573788719857955 ] } },
{ "type": "Feature", "properties": { "NAME": "Taita hills lodge", "TYPE": "lodge" }, "geometry": { "type": "Point", "coordinates": [ 38.270697073365483, -3.538803202641623 ] } },
{ "type": "Feature", "properties": { "NAME": "lake Jipe lodge", "TYPE": "lodge" }, "geometry": { "type": "Point", "coordinates": [ 37.837414898609374, -3.602494785266227 ] } },
{ "type": "Feature", "properties": { "NAME": "Kitani safari camp", "TYPE": "lodge" }, "geometry": { "type": "Point", "coordinates": [ 37.971974580210642, -3.005049798956564 ] } },
{ "type": "Feature", "properties": { "NAME": "Kilaguni lodge", "TYPE": "lodge" }, "geometry": { "type": "Point", "coordinates": [ 38.082313519123687, -2.919828667275756 ] } },
{ "type": "Feature", "properties": { "NAME": "Ngulia safari camp", "TYPE": "lodge" }, "geometry": { "type": "Point", "coordinates": [ 38.158564005364411, -3.020299896204708 ] } },
{ "type": "Feature", "properties": { "NAME": "Ngulia lodge", "TYPE": "lodge" }, "geometry": { "type": "Point", "coordinates": [ 38.210593748916907, -3.016711638028674 ] } },
{ "type": "Feature", "properties": { "NAME": null, "TYPE": "camp site" }, "geometry": { "type": "Point", "coordinates": [ 38.117299036340022, -2.770915952970344 ] } },
{ "type": "Feature", "properties": { "NAME": "Tsavo inn hotel", "TYPE": "hotel" }, "geometry": { "type": "Point", "coordinates": [ 38.177402360788591, -2.663268207689324 ] } },
{ "type": "Feature", "properties": { "NAME": "Tsavo safari camp", "TYPE": "tented camp" }, "geometry": { "type": "Point", "coordinates": [ 38.378344818646497, -2.622003238664933 ] } },
{ "type": "Feature", "properties": { "NAME": "Bush wacker's camp", "TYPE": "camp site" }, "geometry": { "type": "Point", "coordinates": [ 38.078725260947657, -2.355575069094407 ] } },
{ "type": "Feature", "properties": { "NAME": "Hunter's lodge", "TYPE": "lodge" }, "geometry": { "type": "Point", "coordinates": [ 37.711825862448187, -2.247927323813386 ] } },
{ "type": "Feature", "properties": { "NAME": "Kimana safari lodge", "TYPE": "lodge" }, "geometry": { "type": "Point", "coordinates": [ 37.605972246255178, -2.825636890154862 ] } },
{ "type": "Feature", "properties": { "NAME": "kilimanjaro buffallo lodg", "TYPE": "lodge" }, "geometry": { "type": "Point", "coordinates": [ 37.464236048301835, -2.75476879117819 ] } },
{ "type": "Feature", "properties": { "NAME": "Amboseli serena lodge", "TYPE": "lodge" }, "geometry": { "type": "Point", "coordinates": [ 37.258808267723893, -2.702739047625697 ] } },
{ "type": "Feature", "properties": { "NAME": "Oltukai lodge", "TYPE": "lodge" }, "geometry": { "type": "Point", "coordinates": [ 37.300073236748283, -2.636356271369068 ] } },
{ "type": "Feature", "properties": { "NAME": "Amboseli lodge", "TYPE": "lodge" }, "geometry": { "type": "Point", "coordinates": [ 37.3126321403644, -2.655194626793247 ] } },
{ "type": "Feature", "properties": { "NAME": "Kilimanjaro safari lodge", "TYPE": "lodge" }, "geometry": { "type": "Point", "coordinates": [ 37.319808656716468, -2.676724175849451 ] } },
{ "type": "Feature", "properties": { "NAME": "Namanga river lodge", "TYPE": "lodge" }, "geometry": { "type": "Point", "coordinates": [ 36.789643511207444, -2.507178977031844 ] } },
{ "type": "Feature", "properties": { "NAME": "Shompole lodge", "TYPE": "lodge" }, "geometry": { "type": "Point", "coordinates": [ 36.089036102336806, -2.106191125860044 ] } },
{ "type": "Feature", "properties": { "NAME": null, "TYPE": "hotel" }, "geometry": { "type": "Point", "coordinates": [ 36.390121184855907, -0.703013935054188 ] } },
{ "type": "Feature", "properties": { "NAME": "Lake Naivasha hotel", "TYPE": "hotel" }, "geometry": { "type": "Point", "coordinates": [ 36.405288268942847, -0.784266171234236 ] } },
{ "type": "Feature", "properties": { "NAME": "Safariland lodge", "TYPE": "lodge" }, "geometry": { "type": "Point", "coordinates": [ 36.366287195576426, -0.829767423495062 ] } },
{ "type": "Feature", "properties": { "NAME": "Fisherman's camp", "TYPE": "camp site" }, "geometry": { "type": "Point", "coordinates": [ 36.320785943315599, -0.835184239240398 ] } },
{ "type": "Feature", "properties": { "NAME": null, "TYPE": "hotel" }, "geometry": { "type": "Point", "coordinates": [ 37.476668930552322, -0.518134167082578 ] } },
{ "type": "Feature", "properties": { "NAME": "Forest lodge", "TYPE": "lodge" }, "geometry": { "type": "Point", "coordinates": [ 37.600926143435366, 0.052528588380263 ] } },
{ "type": "Feature", "properties": { "NAME": null, "TYPE": "hotel" }, "geometry": { "type": "Point", "coordinates": [ 37.686065344855223, 0.064033885869433 ] } },
{ "type": "Feature", "properties": { "NAME": "Shaba sarova lodge", "TYPE": "lodge" }, "geometry": { "type": "Point", "coordinates": [ 37.837935271712283, 0.67151359329762 ] } },
{ "type": "Feature", "properties": { "NAME": "Shaba camp", "TYPE": "tented camp" }, "geometry": { "type": "Point", "coordinates": [ 37.757398189288089, 0.655406176812781 ] } },
{ "type": "Feature", "properties": { "NAME": "Buffalo springs tented lo", "TYPE": "lodge" }, "geometry": { "type": "Point", "coordinates": [ 37.610130381426714, 0.567965915895088 ] } },
{ "type": "Feature", "properties": { "NAME": "Samburu game lodge", "TYPE": "lodge" }, "geometry": { "type": "Point", "coordinates": [ 37.536496477496023, 0.59787968936693 ] } },
{ "type": "Feature", "properties": { "NAME": null, "TYPE": "camp site" }, "geometry": { "type": "Point", "coordinates": [ 37.635442035902884, 0.526546844934075 ] } },
{ "type": "Feature", "properties": { "NAME": "Samburu serene lodge", "TYPE": "lodge" }, "geometry": { "type": "Point", "coordinates": [ 37.508883763522014, 0.554159558908083 ] } },
{ "type": "Feature", "properties": { "NAME": null, "TYPE": "camp site" }, "geometry": { "type": "Point", "coordinates": [ 37.474367871054504, 0.600180748864764 ] } },
{ "type": "Feature", "properties": { "NAME": "Maru mulika lodge", "TYPE": "lodge" }, "geometry": { "type": "Point", "coordinates": [ 38.143976184924206, 0.218204872224314 ] } },
{ "type": "Feature", "properties": { "NAME": "Leopard rock safari lodge", "TYPE": "lodge" }, "geometry": { "type": "Point", "coordinates": [ 38.201502672370054, 0.220505931722148 ] } },
{ "type": "Feature", "properties": { "NAME": null, "TYPE": "camp site" }, "geometry": { "type": "Point", "coordinates": [ 38.189997374880882, 0.146872027791459 ] } },
{ "type": "Feature", "properties": { "NAME": "Shimba hills lodge", "TYPE": "lodge" }, "geometry": { "type": "Point", "coordinates": [ 39.409440582916311, -4.295451728876045 ] } },
{ "type": "Feature", "properties": { "NAME": "Shimoni reef fishing lodg", "TYPE": "lodge" }, "geometry": { "type": "Point", "coordinates": [ 39.35037082471316, -4.638931433983257 ] } },
{ "type": "Feature", "properties": { "NAME": "Seascape villas", "TYPE": "lodge" }, "geometry": { "type": "Point", "coordinates": [ 39.472885878764139, -4.496726460531226 ] } },
{ "type": "Feature", "properties": { "NAME": "Four and twenty", "TYPE": "lodge" }, "geometry": { "type": "Point", "coordinates": [ 39.575711013414072, -4.332643798855806 ] } },
{ "type": "Feature", "properties": { "NAME": "Golden beach", "TYPE": "lodge" }, "geometry": { "type": "Point", "coordinates": [ 39.595400932815117, -4.2648229653633 ] } },
{ "type": "Feature", "properties": { "NAME": "New sea breeze hotel", "TYPE": "lodge" }, "geometry": { "type": "Point", "coordinates": [ 39.667597303952299, -4.118242454266592 ] } },
{ "type": "Feature", "properties": { "NAME": "new darling beach", "TYPE": "lodge" }, "geometry": { "type": "Point", "coordinates": [ 39.801051202114976, -3.881963421453988 ] } },
{ "type": "Feature", "properties": { "NAME": null, "TYPE": "hotel" }, "geometry": { "type": "Point", "coordinates": [ 39.744169212734164, -3.991351862570934 ] } },
{ "type": "Feature", "properties": { "NAME": null, "TYPE": "hotel" }, "geometry": { "type": "Point", "coordinates": [ 39.717915986866096, -4.048233851951746 ] } },
{ "type": "Feature", "properties": { "NAME": null, "TYPE": "hotel" }, "geometry": { "type": "Point", "coordinates": [ 39.864496497962804, -3.687251996265823 ] } },
{ "type": "Feature", "properties": { "NAME": null, "TYPE": "hotel" }, "geometry": { "type": "Point", "coordinates": [ 40.113902143709446, -3.271575920021427 ] } },
{ "type": "Feature", "properties": { "NAME": null, "TYPE": "hotel" }, "geometry": { "type": "Point", "coordinates": [ 40.048269079039279, -3.324082371757561 ] } }
]
}
